timestamp,gyro_rad[0],gyro_rad[1],gyro_rad[2],accelerometer_m_s2[0],accelerometer_m_s2[1],accelerometer_m_s2[2],x,y,z,vx,vy,vz,q[0],q[1],q[2],q[3]
171957284,0.036239088,0.0073516783,0.006169821,0.18381156,0.22278985,-9.796573,0.0,0.0,-2.0,-0.0005489827,0.0041914852,0.060038768,0.70710677,-9.881189e-10,-1.960791e-09,0.7071068
171961291,0.030444542,-0.0076014046,-7.807966e-05,0.20144953,-0.23068924,-9.803417,0.0,0.0,-2.0,-0.0005489827,0.0041914852,0.060038768,0.70710677,-9.881189e-10,-1.960791e-09,0.7071068
171965284,-0.010415565,0.0033459987,-0.004255205,-0.007895078,-0.3774844,-9.713721,0.0,0.0,-2.0,-0.0005489827,0.0041914852,0.060038768,0.70710677,-9.881189e-10,-1.960791e-09,0.7071068
171969297,-0.030478142,-0.0074009276,0.0042969687,-0.22674061,0.0013323899,-9.864376,0.0,0.0,-2.0,-0.0005489827,0.0041914852,0.060038768,0.70710677,-9.881189e-10,-1.960791e-09,0.7071068
171973284,-0.03488925,0.0029802974,-0.008518621,-0.23471554,0.3447074,-9.698045,0.0,0.0,-2.0,-0.0005489827,0.0041914852,0.060038768,0.70710677,-9.881189e-10,-1.960791e-09,0.7071068
171977300,-0.006478919,-0.0012885598,0.0050904113,-0.08494161,0.6942072,-9.825363,0.0,0.0,-2.0,-0.0005489827,0.0041914852,0.060038768,0.70710677,-9.881189e-10,-1.960791e-09,0.7071068
171981284,0.0048395735,0.003743162,-0.0005341971,0.019723468,0.6446356,-9.727118,0.0,0.0,-2.0,-0.0005489827,0.0041914852,0.060038768,0.70710677,-9.881189e-10,-1.960791e-09,0.7071068
171985284,0.062241513,-0.00036040018,0.004855572,0.39961395,0.25447974,-9.811472,0.0,0.0,-2.0,-0.0005489827,0.0041914852,0.060038768,0.70710677,-9.881189e-10,-1.960791e-09,0.7071068
171989300,0.012620552,-0.00391601,-0.004390454,0.12402121,-0.2775548,-9.820369,0.0,0.0,-2.0,-0.0005489827,0.0041914852,0.060038768,0.70710677,-9.881189e-10,-1.960791e-09,0.7071068
171993284,0.01686074,-0.0010760728,0.0013112848,0.10524693,-0.30503753,-9.732581,0.0,0.0,-2.0,-0.0005489827,0.0041914852,0.060038768,0.70710677,-9.881189e-10,-1.960791e-09,0.7071068
171997295,-0.048814245,-0.0056873197,-0.010442286,-0.22581384,-0.1921874,-9.682664,0.0,0.0,-2.0,-0.0005489827,0.0041914852,0.060038768,0.70710677,-9.881189e-10,-1.960791e-09,0.7071068
172001284,-0.019669618,0.004452075,0.0033351714,-0.24738796,0.40977797,-9.853271,0.0,0.0,-2.0,-0.0005489827,0.0041914852,0.060038768,0.70710677,-9.881189e-10,-1.960791e-09,0.7071068
172005284,-0.03483492,-0.00041512854,-0.004548863,-0.12701882,0.57478255,-9.609863,0.0,0.0,-2.0,-0.0005489827,0.0041914852,0.060038768,0.70710677,-9.881189e-10,-1.960791e-09,0.7071068
172009297,0.042144056,0.0061548976,0.0037253734,0.21536951,0.65804094,-9.929376,0.0,0.0,-2.0,-0.0005489827,0.0041914852,0.060038768,0.70710677,-9.881189e-10,-1.960791e-09,0.7071068
172013284,0.01991225,-0.005934467,0.0024982225,0.023752611,0.09154444,-9.8025055,0.0,0.0,-2.0,-0.00036822926,0.003857653,-0.07005124,0.70710677,-9.881189e-10,-1.960791e-09,0.7071068
172017293,0.050406013,0.0041054185,-0.0012620899,0.35050675,-0.22124381,-9.713111,0.0,0.0,-2.0,-0.00036822926,0.003857653,-0.07005124,0.70710677,-9.908729e-10,-1.9659239e-09,0.7071068
172021308,-0.019168457,-0.0105806375,-0.0018931874,-0.051008254,-0.5146326,-9.749519,0.0,0.0,-2.0,-0.00036822926,0.003857653,-0.07005124,0.70710677,-9.908729e-10,-1.9659239e-09,0.7071068
172025320,-0.027480246,0.008502415,0.0012935185,-0.26765025,-0.0450745,-9.832836,0.0,0.0,-2.0,-0.00036822926,0.003857653,-0.07005124,0.70710677,-9.908729e-10,-1.9659239e-09,0.7071068
172029291,-0.044331077,-0.0053167515,-0.0019850114,-0.16812113,0.32667747,-9.5872135,0.0,0.0,-2.0,-0.00036822926,0.003857653,-0.07005124,0.70710677,-9.908729e-10,-1.9659239e-09,0.7071068
172033284,-0.010972338,0.006369611,0.0061539956,-0.036470488,0.7221498,-9.9668255,0.0,0.0,-2.0,-0.00036822926,0.003857653,-0.07005124,0.70710677,-9.908729e-10,-1.9659239e-09,0.7071068
172037337,0.02898103,-0.011006368,0.0038299416,-0.23414475,0.5939045,-9.806624,0.0,0.0,-2.0,-0.00036822926,0.003857653,-0.07005124,0.70710677,-9.908729e-10,-1.9659239e-09,0.7071068
172041284,0.043765347,0.012725375,0.00038268807,0.32318553,0.0635758,-9.758676,0.0,0.0,-2.0,-0.00036822926,0.003857653,-0.07005124,0.70710677,-9.908729e-10,-1.9659239e-09,0.7071068
172045293,0.0204038,-0.010646522,0.002668631,0.15274319,-0.21484257,-9.794944,0.0,0.0,-2.0,-0.00036822926,0.003857653,-0.07005124,0.70710677,-9.908729e-10,-1.9659239e-09,0.7071068
172049285,-0.017642321,0.007378853,-0.0010475791,0.06061756,-0.3094408,-9.691279,0.0,0.0,-2.0,-0.00036822926,0.003857653,-0.07005124,0.70710677,-9.908729e-10,-1.9659239e-09,0.7071068
172053284,-0.02270697,-0.006716206,-0.003064272,-0.15068093,0.05140114,-9.693125,0.0,0.0,-2.0,-0.00036822926,0.003857653,-0.07005124,0.70710677,-9.908729e-10,-1.9659239e-09,0.7071068
172057299,-0.04385073,0.0046092942,-0.0017917568,-0.15331735,0.35572794,-9.8176,0.0,0.0,-2.0,-0.00036822926,0.003857653,-0.07005124,0.70710677,-9.908729e-10,-1.9659239e-09,0.7071068
172061285,-0.002156112,-0.0022233103,0.0038060911,-0.18171439,0.7864323,-9.840845,0.0,0.0,-2.0,-0.00036822926,0.003857653,-0.07005124,0.70710677,-9.908729e-10,-1.9659239e-09,0.7071068
172065287,0.030589076,0.0008026769,-0.004058604,0.09533179,0.4357355,-9.814796,0.0,0.0,-2.0,-0.00036822926,0.003857653,-0.07005124,0.70710677,-9.908729e-10,-1.9659239e-09,0.7071068
172069286,0.037696157,-0.002220802,0.00477412,0.05365434,0.15335928,-9.822037,0.0,0.0,-2.0,-0.00036822926,0.003857653,-0.07005124,0.70710677,-9.908729e-10,-1.9659239e-09,0.7071068
172073284,0.016838174,0.0028523244,-0.0009259098,0.23839328,-0.2512105,-9.65468,0.0,0.0,-2.0,-0.00036822926,0.003857653,-0.07005124,0.70710677,-9.908729e-10,-1.9659239e-09,0.7071068
172077314,0.00029253258,0.0035618166,-0.0038443236,0.26324394,-0.29134008,-9.724325,0.0,0.0,-2.0,-0.00036822926,0.003857653,-0.07005124,0.70710677,-9.908729e-10,-1.9659239e-09,0.7071068
172081285,-0.045037914,-0.009194326,-0.0035465732,-0.28282887,0.043616526,-9.784005,0.0,0.0,-2.0,-0.00036822926,0.003857653,-0.07005124,0.70710677,-9.908729e-10,-1.9659239e-09,0.7071068
172085284,-0.015263017,0.01408384,-0.00048447965,0.007207905,0.44673187,-9.764606,0.0,0.0,-2.0,-0.00036822926,0.003857653,-0.07005124,0.70710677,-9.908729e-10,-1.9659239e-09,0.7071068
172089284,-0.014389276,-0.014519685,-0.00048260225,-0.12579751,0.6212507,-9.958093,0.0,0.0,-2.0,-0.00036822926,0.003857653,-0.07005124,0.70710677,-9.908729e-10,-1.9659239e-09,0.7071068
172094085,0.037311066,0.007795054,-0.0022833212,-0.07413893,0.37496054,-9.712212,0.0,0.0,-2.0,-0.00036822926,0.003857653,-0.07005124,0.70710677,-9.908729e-10,-1.9659239e-09,0.7071068
172098099,0.02357805,-0.0049541653,0.008387733,0.10458311,-0.020214874,-9.832461,0.0,0.0,-2.0,-0.00036822926,0.003857653,-0.07005124,0.70710677,-9.908729e-10,-1.9659239e-09,0.7071068
172102085,0.02726606,0.0041805278,-0.0026862735,0.35017565,-0.41268218,-9.587583,0.0,0.0,-2.0,-0.00036822926,0.003857653,-0.07005124,0.70710677,-9.908729e-10,-1.9659239e-09,0.7071068
172106085,-0.035662696,-0.0050725536,-0.0037101116,-0.0919409,-0.17121209,-9.773184,0.0,0.0,-2.0,-0.00036822926,0.003857653,-0.07005124,0.70710677,-9.908729e-10,-1.9659239e-09,0.7071068
172110085,-0.022554925,0.00776075,0.0019602543,-0.06984252,0.14179122,-9.775519,0.0,0.0,-2.0,-0.00036822926,0.003857653,-0.07005124,0.70710677,-9.908729e-10,-1.9659239e-09,0.7071068
172114085,-0.028753573,-0.0062448247,9.385348e-05,-0.066257045,0.46383968,-9.9230795,0.0,0.0,-2.0,-0.00014391971,0.0037176083,-0.19669998,0.70710677,-9.908729e-10,-1.9659239e-09,0.7071068
172118124,0.0068954425,-0.0016637647,-0.0015205462,-0.3320306,0.7082836,-9.786836,0.0,0.0,-2.0,-0.00014391971,0.0037176083,-0.19669998,0.70710677,-9.920308e-10,-1.968083e-09,0.7071068
172122085,0.03191913,0.004009929,0.008139539,-0.11591195,0.34273946,-9.813876,0.0,0.0,-2.0,-0.00014391971,0.0037176083,-0.19669998,0.70710677,-9.920308e-10,-1.968083e-09,0.7071068
172126120,0.038283918,0.004267497,0.0023405321,0.27120093,-0.10078609,-9.738949,0.0,0.0,-2.0,-0.00014391971,0.0037176083,-0.19669998,0.70710677,-9.920308e-10,-1.968083e-09,0.7071068
172130085,-0.0038102788,-0.0022619008,0.0016314982,0.0986867,-0.25574872,-9.698735,0.0,0.0,-2.0,-0.00014391971,0.0037176083,-0.19669998,0.70710677,-9.920308e-10,-1.968083e-09,0.7071068
172134084,-0.019167103,0.0022171594,-0.0004897882,0.06310094,-0.11994981,-9.7066965,0.0,0.0,-2.0,-0.00014391971,0.0037176083,-0.19669998,0.70710677,-9.920308e-10,-1.968083e-09,0.7071068
172138122,-0.0317511,-0.0021937282,-0.0029478376,0.05705811,0.1255956,-9.930609,0.0,0.0,-2.0,-0.00014391971,0.0037176083,-0.19669998,0.70710677,-9.920308e-10,-1.968083e-09,0.7071068
172142085,-0.02418755,-0.007701056,0.00039797058,-0.18672255,0.59857607,-9.721801,0.0,0.0,-2.0,-0.00014391971,0.0037176083,-0.19669998,0.70710677,-9.920308e-10,-1.968083e-09,0.7071068
172146118,0.02110014,0.0027206938,-0.0008009939,-0.14372419,0.5956217,-9.787709,0.0,0.0,-2.0,-0.00014391971,0.0037176083,-0.19669998,0.70710677,-9.920308e-10,-1.968083e-09,0.7071068
172150085,0.03545333,-0.0030487366,-0.0025489766,-0.17275235,0.32881656,-9.754158,0.0,0.0,-2.0,-0.00014391971,0.0037176083,-0.19669998,0.70710677,-9.920308e-10,-1.968083e-09,0.7071068
172154085,0.021206932,0.012218718,0.0064960327,0.19754882,-0.09854722,-9.73037,0.0,0.0,-2.0,-0.00014391971,0.0037176083,-0.19669998,0.70710677,-9.920308e-10,-1.968083e-09,0.7071068
172158103,-0.00011079962,-0.0050159665,-0.003936624,0.19845438,-0.20817477,-9.719983,0.0,0.0,-2.0,-0.00014391971,0.0037176083,-0.19669998,0.70710677,-9.920308e-10,-1.968083e-09,0.7071068
172162091,-0.020786602,0.0030734702,-0.0020146882,0.15586893,-0.10731776,-9.808794,0.0,0.0,-2.0,-0.00014391971,0.0037176083,-0.19669998,0.70710677,-9.920308e-10,-1.968083e-09,0.7071068
172166126,-0.03045533,-0.0032184247,0.004894376,-0.023033455,0.27608827,-9.961431,0.0,0.0,-2.0,-0.00014391971,0.0037176083,-0.19669998,0.70710677,-9.920308e-10,-1.968083e-09,0.7071068
172170085,0.0095175905,-0.008518632,-0.014491432,-0.010043066,0.38803348,-9.603591,0.0,0.0,-2.0,-0.00014391971,0.0037176083,-0.19669998,0.70710677,-9.920308e-10,-1.968083e-09,0.7071068
172174085,-0.021371078,-0.0018453941,0.012754501,-0.40441185,0.562903,-9.911658,0.0,0.0,-2.0,-0.00014391971,0.0037176083,-0.19669998,0.70710677,-9.920308e-10,-1.968083e-09,0.7071068
172178123,0.054701976,0.008889314,-0.0055702045,0.007706179,0.2499025,-9.648687,0.0,0.0,-2.0,-0.00014391971,0.0037176083,-0.19669998,0.70710677,-9.920308e-10,-1.968083e-09,0.7071068
172182091,-0.00096523535,-0.0038060995,8.278704e-05,0.25214687,-0.21685751,-9.701133,0.0,0.0,-2.0,-0.00014391971,0.0037176083,-0.19669998,0.70710677,-9.920308e-10,-1.968083e-09,0.7071068
172186091,0.008508131,-0.0023632385,0.0075763874,-0.083491296,-0.028274631,-9.934378,0.0,0.0,-2.0,-0.00014391971,0.0037176083,-0.19669998,0.70710677,-9.920308e-10,-1.968083e-09,0.7071068
172190085,-0.014258638,0.0033187384,-0.0077634347,0.33615413,-0.24930575,-9.70139,0.0,0.0,-2.0,-0.00014391971,0.0037176083,-0.19669998,0.70710677,-9.920308e-10,-1.968083e-09,0.7071068
172194097,-0.025616636,-0.013139814,0.00077607646,0.06357884,0.23803529,-9.75961,0.0,0.0,-2.0,-0.00014391971,0.0037176083,-0.19669998,0.70710677,-9.920308e-10,-1.968083e-09,0.7071068
172198085,-0.01779977,0.00044449244,0.004288494,-0.42248902,0.41851425,-9.830554,0.0,0.0,-2.0,-0.00014391971,0.0037176083,-0.19669998,0.70710677,-9.920308e-10,-1.968083e-09,0.7071068
172202085,0.01740962,0.0075894305,-0.007301986,-0.069311865,0.4923574,-9.592238,0.0,0.0,-2.0,-0.00014391971,0.0037176083,-0.19669998,0.70710677,-9.920308e-10,-1.968083e-09,0.7071068
172206092,0.00926689,-0.002395948,0.01044301,-0.09502472,0.23984526,-9.947131,0.0,0.0,-2.0,-0.00014391971,0.0037176083,-0.19669998,0.70710677,-9.920308e-10,-1.968083e-09,0.7071068
172210121,0.036801487,-0.0026476108,-0.00786812,-0.29548562,0.02558023,-9.672877,0.0,0.0,-2.0,-0.00014391971,0.0037176083,-0.19669998,0.70710677,-9.920308e-10,-1.968083e-09,0.7071068
172214085,0.021024168,0.013696382,-0.007855179,0.68857485,-0.5457898,-9.791805,0.0,0.0,-2.0,-0.00014391971,0.0037176083,-0.19669998,0.70710677,-9.920308e-10,-1.968083e-09,0.7071068
172218085,-0.05887751,-0.025214793,0.016753484,-0.21285102,0.09694857,-9.748469,0.0,0.0,-2.0,3.100863e-05,0.003778716,-0.32672116,0.70710677,-9.945968e-10,-1.9728572e-09,0.7071068
172222085,-0.05266196,0.025842898,0.020300224,0.19307691,0.46392393,-9.817904,0.0,0.0,-2.0,3.100863e-05,0.003778716,-0.32672116,0.70710677,-9.945968e-10,-1.9728572e-09,0.7071068
172226094,0.027542211,-0.023396244,-0.030003836,-0.12429292,0.9084247,-9.523707,0.0,0.0,-2.0,3.100863e-05,0.003778716,-0.32672116,0.70710677,-9.945968e-10,-1.9728572e-09,0.7071068
172230117,0.02430529,0.016570065,0.031274926,-0.31587166,0.3780335,-10.127004,0.0,0.0,-2.0,3.100863e-05,0.003778716,-0.32672116,0.70710677,-9.945968e-10,-1.9728572e-09,0.7071068
172234084,0.0785284,-0.00917381,0.027316151,-0.33575797,-0.11384577,-9.823366,0.0,0.0,-2.0,3.100863e-05,0.003778716,-0.32672116,0.70710677,-9.945968e-10,-1.9728572e-09,0.7071068
172238085,0.0077453493,0.013138688,-0.036832795,0.68266624,-0.8089032,-9.263004,0.0,0.0,-2.0,3.100863e-05,0.003778716,-0.32672116,0.70710677,-9.945968e-10,-1.9728572e-09,0.7071068
172242085,-0.09050541,-0.019168671,0.04104763,-0.25451544,-0.0010578013,-10.286874,0.0,0.0,-2.0,3.100863e-05,0.003778716,-0.32672116,0.70710677,-9.945968e-10,-1.9728572e-09,0.7071068
172246106,-0.048130244,0.01638172,-0.010184095,0.15972953,0.6111564,-9.65131,0.0,0.0,-2.0,3.100863e-05,0.003778716,-0.32672116,0.70710677,-9.945968e-10,-1.9728572e-09,0.7071068
172250085,0.031330984,0.002210873,0.0013237196,0.45741472,0.8779914,-9.6052065,0.0,0.0,-2.0,3.100863e-05,0.003778716,-0.32672116,0.70710677,-9.945968e-10,-1.9728572e-09,0.7071068
172254085,0.041963484,-0.016072217,0.029706918,-0.48744273,0.5234865,-10.060364,0.0,0.0,-2.0,3.100863e-05,0.003778716,-0.32672116,0.70710677,-9.945968e-10,-1.9728572e-09,0.7071068
172258085,0.06844443,0.02123377,-0.006454301,-0.084261425,-0.19297433,-9.594814,0.0,0.0,-2.0,3.100863e-05,0.003778716,-0.32672116,0.70710677,-9.945968e-10,-1.9728572e-09,0.7071068
172262085,0.019217474,-0.013799992,0.015999256,0.09873351,-0.8714566,-9.812392,0.0,0.0,-2.0,3.100863e-05,0.003778716,-0.32672116,0.70710677,-9.945968e-10,-1.9728572e-09,0.7071068
172266120,-0.07473327,-0.007690896,0.01214899,-0.609883,-0.33365437,-9.920127,0.0,0.0,-2.0,3.100863e-05,0.003778716,-0.32672116,0.70710677,-9.945968e-10,-1.9728572e-09,0.7071068
172270085,-0.043475524,0.018764652,-0.032532506,0.372026,0.3451091,-9.438448,0.0,0.0,-2.0,3.100863e-05,0.003778716,-0.32672116,0.70710677,-9.945968e-10,-1.9728572e-09,0.7071068
172274085,-0.062142253,-0.009547609,-0.0071953656,0.44166848,0.9738131,-9.976684,0.0,0.0,-2.0,3.100863e-05,0.003778716,-0.32672116,0.70710677,-9.945968e-10,-1.9728572e-09,0.7071068
172278085,0.0015026774,-0.0019868596,0.0030846822,-0.24752061,1.3882604,-9.841856,0.0,0.0,-2.0,3.100863e-05,0.003778716,-0.32672116,0.70710677,-9.945968e-10,-1.9728572e-09,0.7071068
172282085,0.119565845,0.008101778,-0.051297516,0.49290714,0.4508061,-9.393295,0.0,0.0,-2.0,3.100863e-05,0.003778716,-0.32672116,0.70710677,-9.945968e-10,-1.9728572e-09,0.7071068
172286133,0.057981707,-0.025894001,0.011912175,-0.3618457,-0.5884485,-10.362944,0.0,0.0,-2.0,3.100863e-05,0.003778716,-0.32672116,0.70710677,-9.945968e-10,-1.9728572e-09,0.7071068
172290084,0.038316444,0.002866456,-0.017402986,-0.59089714,-1.1160429,-9.431657,0.0,0.0,-2.0,3.100863e-05,0.003778716,-0.32672116,0.70710677,-9.945968e-10,-1.9728572e-09,0.7071068
172294116,-0.108232036,0.0094343675,-0.04708905,0.33731797,-0.7709102,-9.542438,0.0,0.0,-2.0,3.100863e-05,0.003778716,-0.32672116,0.70710677,-9.945968e-10,-1.9728572e-09,0.7071068
172298084,-0.111584656,0.0042183683,0.012161709,-0.16980553,0.8150567,-10.115458,0.0,0.0,-2.0,3.100863e-05,0.003778716,-0.32672116,0.70710677,-9.945968e-10,-1.9728572e-09,0.7071068
172302085,-0.026637288,0.004256139,-0.044163186,0.11509892,1.3974745,-9.3146715,0.0,0.0,-2.0,3.100863e-05,0.003778716,-0.32672116,0.70710677,-9.945968e-10,-1.9728572e-09,0.7071068
172306121,0.050820895,0.010897904,0.023881739,0.5190292,1.3211776,-10.226048,0.0,0.0,-2.0,3.100863e-05,0.003778716,-0.32672116,0.70710677,-9.945968e-10,-1.9728572e-09,0.7071068
172310085,0.122050226,-0.029579693,0.0032643145,-0.3959659,0.25493276,-9.838258,0.0,0.0,-2.0,3.100863e-05,0.003778716,-0.32672116,0.70710677,-9.945968e-10,-1.9728572e-09,0.7071068
172314104,0.09247636,0.015886957,-0.03346721,0.30545413,-1.3384613,-9.195818,0.0,0.0,-2.0,3.100863e-05,0.003778716,-0.32672116,0.70710677,-9.945968e-10,-1.9728572e-09,0.7071068
172318084,-0.08233769,-0.013427762,0.032282773,-0.52208227,-0.8994472,-10.401471,0.0,0.0,-2.0,0.00018865443,0.004041557,-0.45152366,0.70710677,-9.958967e-10,-1.9752022e-09,0.7071068
172322061,-0.07039992,0.0005178189,0.010147113,-0.22180226,-0.20441908,-9.374978,0.0,0.0,-2.0,0.00018865443,0.004041557,-0.45152366,0.70710677,-9.958967e-10,-1.9752022e-09,0.7071068
172326105,-0.072014004,0.013864716,0.00055716914,0.32153508,0.52903676,-9.592053,0.0,0.0,-2.0,0.00018865443,0.004041557,-0.45152366,0.70710677,-9.958967e-10,-1.9752022e-09,0.7071068
172330060,0.005954839,-0.0035675764,0.031651095,-0.0100644445,1.4031578,-10.101423,0.0,0.0,-2.0,0.00018865443,0.004041557,-0.45152366,0.70710677,-9.958967e-10,-1.9752022e-09,0.7071068
172334061,0.047201704,0.008085586,0.0061519966,0.1696795,0.634483,-9.804038,0.0,0.0,-2.0,0.00018865443,0.004041557,-0.45152366,0.70710677,-9.958967e-10,-1.9752022e-09,0.7071068
172338060,0.070349745,-0.010760878,0.022950994,0.23699781,0.07581299,-9.712143,0.0,0.0,-2.0,0.00018865443,0.004041557,-0.45152366,0.70710677,-9.958967e-10,-1.9752022e-09,0.7071068
172342061,0.01024071,-0.0022763123,0.016246509,-0.40563563,-0.46128294,-9.877964,0.0,0.0,-2.0,0.00018865443,0.004041557,-0.45152366,0.70710677,-9.958967e-10,-1.9752022e-09,0.7071068
172346066,0.039742358,-0.00027470294,0.0044731027,-0.09336391,-0.7769525,-9.639686,0.0,0.0,-2.0,0.00018865443,0.004041557,-0.45152366,0.70710677,-9.958967e-10,-1.9752022e-09,0.7071068
172350065,-0.06711611,0.005135838,-0.0069497176,-0.10114121,-0.54008204,-9.735487,0.0,0.0,-2.0,0.00018865443,0.004041557,-0.45152366,0.70710677,-9.958967e-10,-1.9752022e-09,0.7071068
172354075,-0.06476139,0.01190096,0.016869102,0.10288874,0.39170694,-9.799438,0.0,0.0,-2.0,0.00018865443,0.004041557,-0.45152366,0.70710677,-9.958967e-10,-1.9752022e-09,0.7071068
172358060,-0.08092577,-0.008577524,-0.028736992,0.12403713,1.1426328,-9.582015,0.0,0.0,-2.0,0.00018865443,0.004041557,-0.45152366,0.70710677,-9.958967e-10,-1.9752022e-09,0.7071068
172362060,0.04383831,0.0076561784,-0.0008812316,0.13692434,1.5927979,-10.171299,0.0,0.0,-2.0,0.00018865443,0.004041557,-0.45152366,0.70710677,-9.958967e-10,-1.9752022e-09,0.7071068
172366067,0.08212114,-0.008651896,0.002993429,0.070586905,0.39431924,-9.898705,0.0,0.0,-2.0,0.00018865443,0.004041557,-0.45152366,0.70710677,-9.958967e-10,-1.9752022e-09,0.7071068
172370061,0.11675053,-0.004315283,-0.03528757,0.20777217,-0.5483766,-9.480479,0.0,0.0,-2.0,0.00018865443,0.004041557,-0.45152366,0.70710677,-9.958967e-10,-1.9752022e-09,0.7071068
172374065,0.0010657967,-0.009293305,-0.00876335,-0.45916864,-1.2902398,-9.772962,0.0,0.0,-2.0,0.00018865443,0.004041557,-0.45152366,0.70710677,-9.958967e-10,-1.9752022e-09,0.7071068
172378092,-0.09468154,0.01084929,-0.018419197,-0.113180935,-0.63892394,-9.631808,0.0,0.0,-2.0,0.00018865443,0.004041557,-0.45152366,0.70710677,-9.958967e-10,-1.9752022e-09,0.7071068
172382061,-0.12596634,0.005421006,-0.023180515,0.33886662,0.6302468,-9.696985,0.0,0.0,-2.0,0.00018865443,0.004041557,-0.45152366,0.70710677,-9.958967e-10,-1.9752022e-09,0.7071068
172386074,-0.037908975,0.0022751966,-0.00033881422,-0.18121204,1.7246913,-10.000379,0.0,0.0,-2.0,0.00018865443,0.004041557,-0.45152366,0.70710677,-9.958967e-10,-1.9752022e-09,0.7071068
172390061,0.077494614,-0.00059559447,-0.0029701141,0.26341635,1.3007305,-9.900723,0.0,0.0,-2.0,0.00018865443,0.004041557,-0.45152366,0.70710677,-9.958967e-10,-1.9752022e-09,0.7071068
172394081,0.12005964,-0.0067998897,0.0017682865,0.15931794,0.17372122,-9.759355,0.0,0.0,-2.0,0.00018865443,0.004041557,-0.45152366,0.70710677,-9.958967e-10,-1.9752022e-09,0.7071068
172398098,0.08148098,-0.0035032074,0.019683488,-0.16814023,-1.1379105,-9.6510725,0.0,0.0,-2.0,0.00018865443,0.004041557,-0.45152366,0.70710677,-9.958967e-10,-1.9752022e-09,0.7071068
172402068,-0.043782488,-0.003732531,-0.0037695207,-0.48201728,-1.2211797,-9.582912,0.0,0.0,-2.0,0.00018865443,0.004041557,-0.45152366,0.70710677,-9.958967e-10,-1.9752022e-09,0.7071068
172406067,-0.080044374,0.013276489,0.017903415,-0.075399406,-0.3962588,-9.728197,0.0,0.0,-2.0,0.00018865443,0.004041557,-0.45152366,0.70710677,-9.958967e-10,-1.9752022e-09,0.7071068
172410061,-0.115751185,-0.00032577847,0.023235794,0.09881368,0.7284579,-9.990974,0.0,0.0,-2.0,0.00018865443,0.004041557,-0.45152366,0.70710677,-9.958967e-10,-1.9752022e-09,0.7071068
172414089,0.015554349,-0.009507705,0.00012352168,0.039963335,1.4981527,-9.72781,0.0,0.0,-2.0,0.00018865443,0.004041557,-0.45152366,0.70710677,-9.958967e-10,-1.9752022e-09,0.7071068
172418061,0.046318434,0.007851885,0.033803415,0.03586362,0.9619791,-10.085523,0.0,0.0,-2.0,0.00023157154,0.0043521905,-0.57686627,0.70710677,-9.996826e-10,-1.9822644e-09,0.7071068
172422061,0.1260506,-0.0023117252,0.009974884,0.14429705,0.12897287,-9.677729,0.0,0.0,-2.0,0.00023157154,0.0043521905,-0.57686627,0.70710677,-9.996826e-10,-1.9822644e-09,0.7071068
172426061,0.046705663,-0.000915279,0.005710924,0.12557893,-1.2242949,-9.573317,0.0,0.0,-2.0,0.00023157154,0.0043521905,-0.57686627,0.70710677,-9.996826e-10,-1.9822644e-09,0.7071068
172430060,-0.036623213,-0.0066148387,-0.0034558072,-0.36712006,-0.90132856,-9.763515,0.0,0.0,-2.0,0.00023157154,0.0043521905,-0.57686627,0.70710677,-9.996826e-10,-1.9822644e-09,0.7071068
172434114,-0.0893383,0.011663818,-0.005730762,-0.099853545,-0.37092105,-9.784035,0.0,0.0,-2.0,0.00023157154,0.0043521905,-0.57686627,0.70710677,-9.996826e-10,-1.9822644e-09,0.7071068
172438061,-0.073148765,-0.0090703415,-0.015145585,0.12492928,0.72990024,-9.827117,0.0,0.0,-2.0,0.00023157154,0.0043521905,-0.57686627,0.70710677,-9.996826e-10,-1.9822644e-09,0.7071068
172442061,-0.041446734,0.00039485743,-0.012487588,0.020380886,1.3852737,-9.880396,0.0,0.0,-2.0,0.00023157154,0.0043521905,-0.57686627,0.70710677,-9.996826e-10,-1.9822644e-09,0.7071068
172446078,0.082374774,0.0023015868,-0.011742102,0.15925054,1.2071954,-9.823108,0.0,0.0,-2.0,0.00023157154,0.0043521905,-0.57686627,0.70710677,-9.996826e-10,-1.9822644e-09,0.7071068
172450061,0.07320298,-0.009060335,-0.013349514,0.18612497,0.049602456,-9.747733,0.0,0.0,-2.0,0.00023157154,0.0043521905,-0.57686627,0.70710677,-9.996826e-10,-1.9822644e-09,0.7071068
172454095,0.048147857,0.0028298749,-0.012099798,-0.15392715,-0.45413813,-9.603903,0.0,0.0,-2.0,0.00023157154,0.0043521905,-0.57686627,0.70710677,-9.996826e-10,-1.9822644e-09,0.7071068
172458060,-0.0075392476,-0.00040988094,-0.015782816,-0.058643635,-0.92556673,-9.778935,0.0,0.0,-2.0,0.00023157154,0.0043521905,-0.57686627,0.70710677,-9.996826e-10,-1.9822644e-09,0.7071068
172462079,-0.10299749,-0.0032310344,-0.0114029795,0.0019661416,-0.12786816,-10.039166,0.0,0.0,-2.0,0.00023157154,0.0043521905,-0.57686627,0.70710677,-9.996826e-10,-1.9822644e-09,0.7071068
172466074,-0.06267974,-0.009561633,-0.011224393,-0.24517155,0.9898807,-9.758729,0.0,0.0,-2.0,0.00023157154,0.0043521905,-0.57686627,0.70710677,-9.996826e-10,-1.9822644e-09,0.7071068
172470060,0.01679355,0.00973304,-0.0003456055,0.2738329,1.1214083,-9.7495,0.0,0.0,-2.0,0.00023157154,0.0043521905,-0.57686627,0.70710677,-9.996826e-10,-1.9822644e-09,0.7071068
172474067,0.04346282,-0.010559966,0.0047081197,0.15781984,0.94358665,-9.978439,0.0,0.0,-2.0,0.00023157154,0.0043521905,-0.57686627,0.70710677,-9.996826e-10,-1.9822644e-09,0.7071068
172478061,0.109897904,0.0045281,0.008457209,0.07585528,-0.19085713,-9.469086,0.0,0.0,-2.0,0.00023157154,0.0043521905,-0.57686627,0.70710677,-9.996826e-10,-1.9822644e-09,0.7071068
172482066,0.0002440147,0.0014033467,0.008388746,-0.07469197,-0.78896135,-9.798991,0.0,0.0,-2.0,0.00023157154,0.0043521905,-0.57686627,0.70710677,-9.996826e-10,-1.9822644e-09,0.7071068
172486085,-0.0013319975,0.0017087013,0.015954558,-0.13535723,-0.66224784,-9.905737,0.0,0.0,-2.0,0.00023157154,0.0043521905,-0.57686627,0.70710677,-9.996826e-10,-1.9822644e-09,0.7071068
172490084,-0.071701616,-0.0013866649,0.019256208,0.07330768,-0.46435297,-9.703633,0.0,0.0,-2.0,0.00023157154,0.0043521905,-0.57686627,0.70710677,-9.996826e-10,-1.9822644e-09,0.7071068
172494091,-0.06437828,-0.01909072,0.010644228,-0.35435992,0.8134329,-9.61727,0.0,0.0,-2.0,0.00023157154,0.0043521905,-0.57686627,0.70710677,-9.996826e-10,-1.9822644e-09,0.7071068
172498084,0.00630103,0.018872032,0.034917507,-0.25125173,0.91035086,-9.878274,0.0,0.0,-2.0,0.00023157154,0.0043521905,-0.57686627,0.70710677,-9.996826e-10,-1.9822644e-09,0.7071068
172502092,0.047484722,0.0057028565,0.020289173,0.23555864,0.6432814,-9.819514,0.0,0.0,-2.0,0.00023157154,0.0043521905,-0.57686627,0.70710677,-9.996826e-10,-1.9822644e-09,0.7071068
172506084,0.05323494,-0.00014517533,0.02738968,0.20402524,0.053283315,-9.716359,0.0,0.0,-2.0,0.00023157154,0.0043521905,-0.57686627,0.70710677,-9.996826e-10,-1.9822644e-09,0.7071068
172510091,0.074099064,-0.0017053869,0.017106352,-0.007861914,-0.7514305,-9.883278,0.0,0.0,-2.0,0.00023157154,0.0043521905,-0.57686627,0.70710677,-9.996826e-10,-1.9822644e-09,0.7071068
172514090,-0.04225243,-0.018239548,0.0032202525,-0.110523574,-0.9015239,-9.738139,0.0,0.0,-2.0,0.00023157154,0.0043521905,-0.57686627,0.70710677,-9.996826e-10,-1.9822644e-09,0.7071068
172518084,-0.042286374,0.009041223,0.00564882,-0.13814297,-0.28417602,-9.662132,0.0,0.0,-2.0,0.00023157154,0.0043521905,-0.57686627,0.70710677,-1.013104e-09,-2.0065822e-09,0.7071068
172522114,-0.09394528,-0.009253641,-0.02057265,-0.22815435,0.4394252,-9.769843,0.0,0.0,-2.0,0.00036855938,0.0047547305,-0.70670366,0.70710677,-1.013104e-09,-2.0065822e-09,0.7071068
172526087,-0.03610832,0.029129636,-0.007369864,-0.0050065103,1.5385802,-9.967022,0.0,0.0,-2.0,0.00036855938,0.0047547305,-0.70670366,0.70710677,-1.013104e-09,-2.0065822e-09,0.7071068
172530090,0.07822367,-0.010944732,-0.012280075,0.41804883,0.86199003,-9.730092,0.0,0.0,-2.0,0.00036855938,0.0047547305,-0.70670366,0.70710677,-1.013104e-09,-2.0065822e-09,0.7071068
172534090,0.028161561,-0.002547818,-0.02701194,0.510526,0.31752196,-9.69705,0.0,0.0,-2.0,0.00036855938,0.0047547305,-0.70670366,0.70710677,-1.013104e-09,-2.0065822e-09,0.7071068
172538084,0.05389802,-0.012102832,-0.025193129,-0.63867813,0.020238489,-9.974964,0.0,0.0,-2.0,0.00036855938,0.0047547305,-0.70670366,0.70710677,-1.013104e-09,-2.0065822e-09,0.7071068
172542109,0.028892437,0.012965029,-0.023802128,-0.047253143,-0.89250076,-9.715674,0.0,0.0,-2.0,0.00036855938,0.0047547305,-0.70670366,0.70710677,-1.013104e-09,-2.0065822e-09,0.7071068
172546117,-0.09743803,0.011783272,-0.025244605,0.51319945,-0.20156604,-9.881748,0.0,0.0,-2.0,0.00036855938,0.0047547305,-0.70670366,0.70710677,-1.013104e-09,-2.0065822e-09,0.7071068
172550091,-0.030457884,-0.042816035,-0.031639427,-0.03163499,0.60950667,-9.325855,0.0,0.0,-2.0,0.00036855938,0.0047547305,-0.70670366,0.70710677,-1.013104e-09,-2.0065822e-09,0.7071068
172554091,-0.06869303,0.02123754,-0.021866536,-0.55215925,1.1621431,-10.129298,0.0,0.0,-2.0,0.00036855938,0.0047547305,-0.70670366,0.70710677,-1.013104e-09,-2.0065822e-09,0.7071068
172558084,0.10516116,0.0011477732,-0.017127454,-0.23013209,1.1383643,-9.96648,0.0,0.0,-2.0,0.00036855938,0.0047547305,-0.70670366,0.70710677,-1.013104e-09,-2.0065822e-09,0.7071068
172562116,0.03389626,0.029698638,0.014905338,1.2339793,-0.2928372,-9.586485,0.0,0.0,-2.0,0.00036855938,0.0047547305,-0.70670366,0.70710677,-1.013104e-09,-2.0065822e-09,0.7071068
172566104,0.0503161,-0.05062816,-0.013138936,0.046515763,-0.103541434,-9.800717,0.0,0.0,-2.0,0.00036855938,0.0047547305,-0.70670366,0.70710677,-1.013104e-09,-2.0065822e-09,0.7071068
172570084,-0.015734283,0.0030556154,0.0009401821,-0.57589036,-0.70685315,-9.518846,0.0,0.0,-2.0,0.00036855938,0.0047547305,-0.70670366,0.70710677,-1.013104e-09,-2.0065822e-09,0.7071068
172574091,-0.049927812,0.01873233,0.026493404,-0.6345613,0.060630713,-10.158205,0.0,0.0,-2.0,0.00036855938,0.0047547305,-0.70670366,0.70710677,-1.013104e-09,-2.0065822e-09,0.7071068
172578084,0.010985972,0.004666543,0.0116894,0.46385166,0.010326623,-9.55211,0.0,0.0,-2.0,0.00036855938,0.0047547305,-0.70670366,0.70710677,-1.013104e-09,-2.0065822e-09,0.7071068
172582091,-0.030627346,-0.0104245925,0.014499931,0.41888374,0.27216005,-9.652982,0.0,0.0,-2.0,0.00036855938,0.0047547305,-0.70670366,0.70710677,-1.013104e-09,-2.0065822e-09,0.7071068
172586084,0.022828344,-0.025654033,0.012864723,-0.5893802,0.4004605,-9.961097,0.0,0.0,-2.0,0.00036855938,0.0047547305,-0.70670366,0.70710677,-1.013104e-09,-2.0065822e-09,0.7071068
172590084,0.01741536,0.015878856,0.013398122,-0.39183846,-0.096901715,-9.691688,0.0,0.0,-2.0,0.00036855938,0.0047547305,-0.70670366,0.70710677,-1.013104e-09,-2.0065822e-09,0.7071068
172594090,0.01687101,0.023335533,0.021666016,0.24009825,0.009848673,-9.928556,0.0,0.0,-2.0,0.00036855938,0.0047547305,-0.70670366,0.70710677,-1.013104e-09,-2.0065822e-09,0.7071068
172598087,0.027640644,-0.003163899,0.014704652,0.29889396,-0.3344624,-9.543084,0.0,0.0,-2.0,0.00036855938,0.0047547305,-0.70670366,0.70710677,-1.013104e-09,-2.0065822e-09,0.7071068
172602124,-0.04020877,-0.00952686,0.008558458,-0.26317236,-0.0016158634,-9.774645,0.0,0.0,-2.0,0.00036855938,0.0047547305,-0.70670366,0.70710677,-1.013104e-09,-2.0065822e-09,0.7071068
172606084,-0.02120187,-0.0042456286,0.0039185276,-0.15903103,0.28965414,-9.7774725,0.0,0.0,-2.0,0.00036855938,0.0047547305,-0.70670366,0.70710677,-1.013104e-09,-2.0065822e-09,0.7071068
172610084,-0.014877744,0.0062619266,0.007515401,-0.062292825,0.5328436,-9.966593,0.0,0.0,-2.0,0.00036855938,0.0047547305,-0.70670366,0.70710677,-1.013104e-09,-2.0065822e-09,0.7071068
172614091,0.058175076,-0.014782621,-0.007204657,0.025139308,0.1674844,-9.716068,0.0,0.0,-2.0,0.00036855938,0.0047547305,-0.70670366,0.70710677,-1.013104e-09,-2.0065822e-09,0.7071068
172618084,-0.0494579,0.002237626,-0.0070290323,0.38037622,-0.12745826,-9.6075735,0.0,0.0,-2.0,0.00036855938,0.0047547305,-0.70670366,0.70710677,-1.0185403e-09,-2.0167497e-09,0.7071068
172622090,0.013955208,0.00095458125,-0.0030615625,-0.10376017,0.37905222,-9.748629,0.0,0.0,-2.0,0.000508059,0.005288326,-0.83127004,0.70710677,-1.0185403e-09,-2.0167497e-09,0.7071068
172626084,-0.03467395,0.0028798992,-0.021059025,-0.645073,0.4717223,-10.03543,0.0,0.0,-2.0,0.000508059,0.005288326,-0.83127004,0.70710677,-1.0185403e-09,-2.0167497e-09,0.7071068
172630115,0.045910954,0.04111004,0.012263682,0.6269002,0.48273563,-9.4919815,0.0,0.0,-2.0,0.000508059,0.005288326,-0.83127004,0.70710677,-1.0185403e-09,-2.0167497e-09,0.7071068
172634090,-0.062015876,-0.034953162,-0.012933018,0.7059772,0.5825332,-9.577479,0.0,0.0,-2.0,0.000508059,0.005288326,-0.83127004,0.70710677,-1.0185403e-09,-2.0167497e-09,0.7071068
172638084,0.07103254,-0.004720511,-0.019185472,-1.1753818,0.9898827,-10.248733,0.0,0.0,-2.0,0.000508059,0.005288326,-0.83127004,0.70710677,-1.0185403e-09,-2.0167497e-09,0.7071068
172642091,0.123131715,0.011781608,0.005353363,0.4543593,-0.8484511,-10.169041,0.0,0.0,-2.0,0.000508059,0.005288326,-0.83127004,0.70710677,-1.0185403e-09,-2.0167497e-09,0.7071068
172646086,-0.15295875,-0.022935858,-0.0205432,1.0175949,-0.45222634,-8.856037,0.0,0.0,-2.0,0.000508059,0.005288326,-0.83127004,0.70710677,-1.0185403e-09,-2.0167497e-09,0.7071068
172650100,0.02329754,0.010570361,-0.006387899,-0.9945853,0.81660557,-9.52584,0.0,0.0,-2.0,0.000508059,0.005288326,-0.83127004,0.70710677,-1.0185403e-09,-2.0167497e-09,0.7071068
172654091,-0.046017654,0.021868339,-0.010488126,-1.0041173,0.41967216,-10.778164,0.0,0.0,-2.0,0.000508059,0.005288326,-0.83127004,0.70710677,-1.0185403e-09,-2.0167497e-09,0.7071068
172658085,0.07911893,0.03805808,0.04280435,1.7496699,0.44568837,-9.308611,0.0,0.0,-2.0,0.000508059,0.005288326,-0.83127004,0.70710677,-1.0185403e-09,-2.0167497e-09,0.7071068
172662091,-0.08757792,-0.047031116,-0.01743744,-0.1189733,0.6340932,-9.264999,0.0,0.0,-2.0,0.000508059,0.005288326,-0.83127004,0.70710677,-1.0185403e-09,-2.0167497e-09,0.7071068
172666085,0.23986243,-0.0072768903,-0.016130993,-1.6965264,0.4399654,-10.880426,0.0,0.0,-2.0,0.000508059,0.005288326,-0.83127004,0.70710677,-1.0185403e-09,-2.0167497e-09,0.7071068
172670105,-0.044090595,0.050960183,0.05036243,1.2645028,-2.1020486,-10.145253,0.0,0.0,-2.0,0.000508059,0.005288326,-0.83127004,0.70710677,-1.0185403e-09,-2.0167497e-09,0.7071068
172674085,-0.08362654,-0.053659607,-0.031959206,0.15403946,0.28771356,-8.480442,0.0,0.0,-2.0,0.000508059,0.005288326,-0.83127004,0.70710677,-1.0185403e-09,-2.0167497e-09,0.7071068
172678085,0.02934435,0.03373528,0.012136033,-1.6259547,-0.036942575,-9.885174,0.0,0.0,-2.0,0.000508059,0.005288326,-0.83127004,0.70710677,-1.0185403e-09,-2.0167497e-09,0.7071068
172682121,-0.03752816,0.0466674,0.03899872,0.89659685,0.3256413,-10.796148,0.0,0.0,-2.0,0.000508059,0.005288326,-0.83127004,0.70710677,-1.0185403e-09,-2.0167497e-09,0.7071068
172686085,-0.10466503,-0.044061843,-0.0033146632,0.47455695,0.9637119,-8.450032,0.0,0.0,-2.0,0.000508059,0.005288326,-0.83127004,0.70710677,-1.0185403e-09,-2.0167497e-09,0.7071068
172690114,0.25670898,0.011019212,-0.022659052,-0.9492542,0.42558727,-10.0267315,0.0,0.0,-2.0,0.000508059,0.005288326,-0.83127004,0.70710677,-1.0185403e-09,-2.0167497e-09,0.7071068
172694086,-0.0905721,0.032579444,0.020180978,0.39913356,-0.8789807,-11.770719,0.0,0.0,-2.0,0.000508059,0.005288326,-0.83127004,0.70710677,-1.0185403e-09,-2.0167497e-09,0.7071068
172698085,0.015268029,-0.037562545,-0.011221703,-0.20247123,0.33576763,-8.234423,0.0,0.0,-2.0,0.000508059,0.005288326,-0.83127004,0.70710677,-1.0185403e-09,-2.0167497e-09,0.7071068
172702091,0.0898135,0.02704472,-0.024116492,-0.30281717,-1.022167,-9.147935,0.0,0.0,-2.0,0.000508059,0.005288326,-0.83127004,0.70710677,-1.0185403e-09,-2.0167497e-09,0.7071068
172706092,-0.13942458,0.020058082,0.0253619,0.51779974,0.08591196,-11.648715,0.0,0.0,-2.0,0.000508059,0.005288326,-0.83127004,0.70710677,-1.0185403e-09,-2.0167497e-09,0.7071068
172710123,-0.08020811,-0.07218064,-0.016289508,-0.6204531,1.5425135,-7.7687607,0.0,0.0,-2.0,0.000508059,0.005288326,-0.83127004,0.70710677,-1.0185403e-09,-2.0167497e-09,0.7071068
172714116,0.15901732,0.0967468,-0.02703066,0.659074,0.19841018,-10.220386,0.0,0.0,-2.0,0.000508059,0.005288326,-0.83127004,0.70710677,-1.0185403e-09,-2.0167497e-09,0.7071068
172718085,-0.115205035,-0.048187386,0.005265728,-0.22982663,0.8556238,-12.210836,0.0,0.0,-2.0,0.000508059,0.005288326,-0.83127004,0.7071067,-0.00024414167,0.00024413859,0.70710677
172722091,0.17889124,-0.015050198,-0.006218514,-0.17538188,0.82333374,-7.4948425,0.0,0.0,-2.0,0.000508059,0.005288326,-0.83127004,0.7071067,-0.00024414167,0.00024413859,0.70710677
172726085,0.08233743,0.053086672,-0.0058846707,0.67227453,-1.2695413,-10.529991,0.0,0.0,-2.0,0.00139803,0.00597051,-0.9614526,0.7071067,-0.00024414167,0.00024413859,0.70710677
172730103,-0.111528076,-0.06566211,-0.02009264,-0.35462832,0.26260173,-10.394353,0.0,0.0,-2.0,0.00139803,0.00597051,-0.9614526,0.7071067,-0.00024414167,0.00024413859,0.70710677
172734124,0.023645071,0.024640646,0.01266214,0.64381534,0.5807825,-9.006563,0.0,0.0,-2.0,0.00139803,0.00597051,-0.9614526,0.7071067,-0.00024414167,0.00024413859,0.70710677
172738084,-0.0399092,0.008096024,-0.023903603,-0.41310275,0.91882503,-11.596093,0.0,0.0,-2.0,0.00139803,0.00597051,-0.9614526,0.7071067,-0.00024414167,0.00024413859,0.70710677
172742091,0.04179105,-0.032349948,0.0082712,-0.62908506,2.0189488,-9.533739,0.0,0.0,-2.0,0.00139803,0.00597051,-0.9614526,0.7071067,-0.00024414167,0.00024413859,0.70710677
172746085,0.22173935,0.055444334,0.03283435,1.14471,0.41113102,-9.339151,0.0,0.0,-2.0,0.00139803,0.00597051,-0.9614526,0.7071067,-0.00024414167,0.00024413859,0.70710677
172750127,0.08440749,-0.084892035,-0.019276733,0.38081855,-0.5377174,-10.0247965,0.0,0.0,-2.0,0.00139803,0.00597051,-0.9614526,0.7071067,-0.00024414167,0.00024413859,0.70710677
172754091,0.024207264,0.0029682205,-0.013209088,-0.038021732,-0.20552473,-9.849388,0.0,0.0,-2.0,0.00139803,0.00597051,-0.9614526,0.7071067,-0.00024414167,0.00024413859,0.70710677
172758085,0.032657016,-0.0032543647,0.0076215384,-1.1555798,-0.4726874,-10.407347,0.0,0.0,-2.0,0.00139803,0.00597051,-0.9614526,0.7071067,-0.00024414167,0.00024413859,0.70710677
172762091,-0.120006114,-0.0017178884,-0.018786233,0.21735209,1.0504531,-9.729347,0.0,0.0,-2.0,0.00139803,0.00597051,-0.9614526,0.7071067,-0.00024414167,0.00024413859,0.70710677
172766085,0.15528111,0.012458135,0.048293717,0.80016154,1.4332654,-9.529062,0.0,0.0,-2.0,0.00139803,0.00597051,-0.9614526,0.7071067,-0.00024414167,0.00024413859,0.70710677
172770085,0.13155128,-0.07256592,-0.024134083,0.19850615,0.18070634,-10.01342,0.0,0.0,-2.0,0.00139803,0.00597051,-0.9614526,0.7071067,-0.00024414167,0.00024413859,0.70710677
172774091,0.096746646,-0.00014044979,-0.027013984,0.3827947,-0.24532801,-10.613287,0.0,0.0,-2.0,0.00139803,0.00597051,-0.9614526,0.7071067,-0.00024414167,0.00024413859,0.70710677
172778085,0.047691308,-0.0588081,-0.015422908,-1.5190492,-0.61553717,-9.383794,0.0,0.0,-2.0,0.00139803,0.00597051,-0.9614526,0.7071067,-0.00024414167,0.00024413859,0.70710677
172782090,-0.020758538,0.054027453,0.014980863,0.4194474,0.4232979,-10.052872,0.0,0.0,-2.0,0.00139803,0.00597051,-0.9614526,0.7071067,-0.00024414167,0.00024413859,0.70710677
172786085,0.109335735,-0.07355327,0.005592537,0.7676642,0.103627704,-9.820689,0.0,0.0,-2.0,0.00139803,0.00597051,-0.9614526,0.7071067,-0.00024414167,0.00024413859,0.70710677
172790084,0.03401628,-0.034354266,-0.036512762,0.87221855,0.16500843,-9.850133,0.0,0.0,-2.0,0.00139803,0.00597051,-0.9614526,0.7071067,-0.00024414167,0.00024413859,0.70710677
172794085,0.054896817,-0.06723969,-0.01656612,-0.7917716,0.76268864,-11.234762,0.0,0.0,-2.0,0.00139803,0.00597051,-0.9614526,0.7071067,-0.00024414167,0.00024413859,0.70710677
172798118,0.10565738,-0.02702496,-0.03217456,-1.4017174,0.0076472196,-9.598298,0.0,0.0,-2.0,0.00139803,0.00597051,-0.9614526,0.7071067,-0.00024414167,0.00024413859,0.70710677
172802091,0.051125474,0.06962816,0.030101497,1.5966277,-0.6125237,-10.669176,0.0,0.0,-2.0,0.00139803,0.00597051,-0.9614526,0.7071067,-0.00024414167,0.00024413859,0.70710677
172806084,-0.027712284,-0.19240478,-0.023994591,0.8635651,-0.07016637,-10.361083,0.0,0.0,-2.0,0.00139803,0.00597051,-0.9614526,0.7071067,-0.00024414167,0.00024413859,0.70710677
172810084,0.015433112,0.006335971,-0.05977565,0.37145177,0.59309906,-10.617813,0.0,0.0,-2.0,0.00139803,0.00597051,-0.9614526,0.7071067,-0.00024414167,0.00024413859,0.70710677
172814085,0.094063625,-0.110305876,-0.018439058,-2.0574389,0.5599573,-11.6262865,0.0,0.0,-2.0,0.00139803,0.00597051,-0.9614526,0.7071067,-0.00024414167,0.00024413859,0.70710677
172818086,0.17749225,0.003535355,0.010560033,0.22678809,-0.9615719,-10.236743,0.0,0.0,-2.0,0.00139803,0.00597051,-0.9614526,0.7071062,-0.00090940454,0.0009094013,0.70710623
172822090,-0.16049936,-0.09110002,-0.023104293,1.5558417,-0.6326666,-10.352283,0.0,0.0,-2.0,0.00139803,0.00597051,-0.9614526,0.7071062,-0.00090940454,0.0009094013,0.70710623
172826087,0.0024576103,-0.08896404,-0.05573097,0.7578086,0.9832949,-11.645526,0.0,0.0,-2.0,0.0038393019,0.0053845216,-1.0866753,0.7071062,-0.00090940454,0.0009094013,0.70710623
172830085,-0.10401035,-0.13982815,-0.015257982,-1.2581356,1.005328,-11.632179,0.0,0.0,-2.0,0.0038393019,0.0053845216,-1.0866753,0.7071062,-0.00090940454,0.0009094013,0.70710623
172834084,0.29705277,-0.045225985,-0.022829106,-1.6493057,1.0049559,-10.716635,0.0,0.0,-2.0,0.0038393019,0.0053845216,-1.0866753,0.7071062,-0.00090940454,0.0009094013,0.70710623
172838105,0.011648917,0.022326266,0.00060522964,1.3463383,-1.7466594,-11.368376,0.0,0.0,-2.0,0.0038393019,0.0053845216,-1.0866753,0.7071062,-0.00090940454,0.0009094013,0.70710623
172842091,0.015584799,-0.19184762,-0.082048215,2.001452,-0.49030617,-11.40648,0.0,0.0,-2.0,0.0038393019,0.0053845216,-1.0866753,0.7071062,-0.00090940454,0.0009094013,0.70710623
172846091,-0.2243519,-0.12773526,-0.022869103,-0.45052555,-0.23404798,-11.851722,0.0,0.0,-2.0,0.0038393019,0.0053845216,-1.0866753,0.7071062,-0.00090940454,0.0009094013,0.70710623
172850084,0.009010643,-0.09935987,-0.013133362,-2.6133895,1.7175682,-12.269326,0.0,0.0,-2.0,0.0038393019,0.0053845216,-1.0866753,0.7071062,-0.00090940454,0.0009094013,0.70710623
172854085,0.04178034,0.007721567,-0.014961301,-0.60204184,0.5613865,-11.566807,0.0,0.0,-2.0,0.0038393019,0.0053845216,-1.0866753,0.7071062,-0.00090940454,0.0009094013,0.70710623
172858128,0.11273676,-0.049320254,-0.06062632,2.3501382,0.41509032,-11.851812,0.0,0.0,-2.0,0.0038393019,0.0053845216,-1.0866753,0.7071062,-0.00090940454,0.0009094013,0.70710623
172862091,0.029814675,-0.17841956,-0.041842952,0.86851716,-0.43208736,-11.550119,0.0,0.0,-2.0,0.0038393019,0.0053845216,-1.0866753,0.7071062,-0.00090940454,0.0009094013,0.70710623
172866091,-0.054284804,-0.10993949,-0.020255897,-1.5535792,-0.45525816,-12.784643,0.0,0.0,-2.0,0.0038393019,0.0053845216,-1.0866753,0.7071062,-0.00090940454,0.0009094013,0.70710623
172870084,0.04751814,-0.016729943,-0.019245986,-2.2470567,-0.33921057,-12.011711,0.0,0.0,-2.0,0.0038393019,0.0053845216,-1.0866753,0.7071062,-0.00090940454,0.0009094013,0.70710623
172874085,-0.10754211,-0.042821806,-0.07442661,1.7105318,-0.40899682,-11.350953,0.0,0.0,-2.0,0.0038393019,0.0053845216,-1.0866753,0.7071062,-0.00090940454,0.0009094013,0.70710623
172878108,-0.070013575,-0.08764795,-0.013907022,1.768737,1.5560192,-12.598949,0.0,0.0,-2.0,0.0038393019,0.0053845216,-1.0866753,0.7071062,-0.00090940454,0.0009094013,0.70710623
172882122,0.028926484,-0.19529201,-0.057040587,-0.60874087,0.9005795,-11.932462,0.0,0.0,-2.0,0.0038393019,0.0053845216,-1.0866753,0.7071062,-0.00090940454,0.0009094013,0.70710623
172886091,0.17949784,-0.011899724,-0.011819877,-3.0452225,-0.13748063,-13.066014,0.0,0.0,-2.0,0.0038393019,0.0053845216,-1.0866753,0.7071062,-0.00090940454,0.0009094013,0.70710623
172890084,-0.03750122,-0.03384442,-0.08515024,0.72504646,-1.4352543,-11.764125,0.0,0.0,-2.0,0.0038393019,0.0053845216,-1.0866753,0.7071062,-0.00090940454,0.0009094013,0.70710623
172894084,-0.09440284,-0.033555288,-0.013314686,2.1916947,-0.06730938,-11.684988,0.0,0.0,-2.0,0.0038393019,0.0053845216,-1.0866753,0.707106,-0.0009530755,0.0011257059,0.707106
172898127,-0.17346834,-0.15810104,-0.04499469,0.17928618,0.33702913,-12.737287,0.0,0.0,-2.0,0.0038393019,0.0053845216,-1.0866753,0.707106,-0.0009530755,0.0011257059,0.707106
172902135,0.15105574,-0.053297818,-0.02294921,-3.278414,0.31530368,-13.272772,0.0,0.0,-2.0,0.0038393019,0.0053845216,-1.0866753,0.707106,-0.0009530755,0.0011257059,0.707106
172906084,-0.1893464,-0.028883666,-0.08501528,-0.045018528,-0.23984326,-11.799875,0.0,0.0,-2.0,0.0038393019,0.0053845216,-1.0866753,0.707106,-0.0009530755,0.0011257059,0.707106
172910084,0.09257998,0.03692824,-0.012557272,2.0712643,1.3075457,-11.052889,0.0,0.0,-2.0,0.0038393019,0.0053845216,-1.0866753,0.707106,-0.0009530755,0.0011257059,0.707106
172914084,-0.1654503,-0.14881611,-0.040000133,0.39473465,0.02274839,-13.206942,0.0,0.0,-2.0,0.0038393019,0.0053845216,-1.0866753,0.707106,-0.0009530755,0.0011257059,0.707106
172918084,0.20796454,-0.03204174,-0.05179903,-2.3153567,0.25796285,-13.218178,0.0,0.0,-2.0,0.0038393019,0.0053845216,-1.0866753,0.707106,-0.0009530755,0.0011257059,0.707106
172922091,-0.20668766,-0.036666673,-0.05603123,0.5366891,-0.6331114,-11.621022,0.0,0.0,-2.0,0.0038393019,0.0053845216,-1.0866753,0.707106,-0.0009530755,0.0011257059,0.707106
172926085,0.12456874,-0.0055584414,-0.039284818,0.9051771,1.2093638,-11.209025,0.0,0.0,-2.0,0.0062548993,0.0040109125,-1.2112755,0.707106,-0.0009530755,0.0011257059,0.707106
172930084,-0.12381531,-0.070849955,-0.016690673,0.041014016,-0.5840233,-14.098139,0.0,0.0,-2.0,0.0062548993,0.0040109125,-1.2112755,0.707106,-0.0009530755,0.0011257059,0.707106
172934084,0.14786193,-0.09479998,-0.062884375,-1.5774778,0.71021146,-12.124473,0.0,0.0,-2.0,0.0062548993,0.0040109125,-1.2112755,0.707106,-0.0009530755,0.0011257059,0.707106
172938102,-0.17635676,0.0364129,-0.03422297,0.122584656,-0.22946553,-11.220108,0.0,0.0,-2.0,0.0062548993,0.0040109125,-1.2112755,0.707106,-0.0009530755,0.0011257059,0.707106
172942084,0.10179364,-0.031019893,-0.033632115,1.3127676,1.5257627,-12.899519,0.0,0.0,-2.0,0.0062548993,0.0040109125,-1.2112755,0.707106,-0.0009530755,0.0011257059,0.707106
172946130,-0.017809613,-0.071754724,-0.024327103,0.38998154,-0.35178927,-14.044311,0.0,0.0,-2.0,0.0062548993,0.0040109125,-1.2112755,0.707106,-0.0009530755,0.0011257059,0.707106
172950091,0.14201805,-0.124472134,-0.0663561,-1.6448727,-0.2570271,-10.477625,0.0,0.0,-2.0,0.0062548993,0.0040109125,-1.2112755,0.707106,-0.0009530755,0.0011257059,0.707106
172954084,-0.07244228,0.10099048,-0.035397004,-0.25659263,-0.9439061,-12.293998,0.0,0.0,-2.0,0.0062548993,0.0040109125,-1.2112755,0.707106,-0.0009530755,0.0011257059,0.707106
172966142,-0.055998795,-0.17586872,-0.082638614,-2.3358538,0.70629174,-11.628279,0.0,0.0,-2.0,0.0062548993,0.0040109125,-1.2112755,0.707106,-0.0009530755,0.0011257059,0.707106
172970091,0.09196433,0.14942144,-0.008368633,-0.7135114,0.79513925,-11.6335945,0.0,0.0,-2.0,0.0062548993,0.0040109125,-1.2112755,0.707106,-0.0009530755,0.0011257059,0.707106
172974085,-0.038654707,-0.07097432,-0.018700596,3.9924355,-0.07737897,-13.607907,0.0,0.0,-2.0,0.0062548993,0.0040109125,-1.2112755,0.707106,-0.0009530755,0.0011257059,0.707106
172978091,0.10687534,-0.13811499,-0.05671565,-0.3036293,-0.43629467,-12.121314,0.0,0.0,-2.0,0.0062548993,0.0040109125,-1.2112755,0.707106,-0.0009530755,0.0011257059,0.707106
172982084,-0.09383549,-0.06463212,-0.06402378,-3.5339336,-0.8048278,-11.62454,0.0,0.0,-2.0,0.0062548993,0.0040109125,-1.2112755,0.707106,-0.0009530755,0.0011257059,0.707106
172986092,-0.0844997,0.08632388,-0.015134712,-0.6255677,0.61698514,-11.674655,0.0,0.0,-2.0,0.0062548993,0.0040109125,-1.2112755,0.707106,-0.0009530755,0.0011257059,0.707106
172990091,-0.043329556,0.038924105,-0.006536915,5.0056677,0.5057689,-13.126397,0.0,0.0,-2.0,0.0062548993,0.0040109125,-1.2112755,0.707106,-0.0009530755,0.0011257059,0.707106
172994085,0.003132474,-0.31460366,-0.078663215,-0.09174103,0.43225035,-11.787,0.0,0.0,-2.0,0.0062548993,0.0040109125,-1.2112755,0.70733124,-0.00019569811,0.0032741907,0.70687455
172998091,0.035621274,0.08064252,-0.022083865,-4.8916054,0.49382865,-11.877123,0.0,0.0,-2.0,0.0062548993,0.0040109125,-1.2112755,0.70733124,-0.00019569811,0.0032741907,0.70687455
173002087,-0.09337089,0.005861679,-0.020346709,0.55215615,1.3332794,-12.145826,0.0,0.0,-2.0,0.0062548993,0.0040109125,-1.2112755,0.70733124,-0.00019569811,0.0032741907,0.70687455
173006092,0.24956483,0.06189533,-0.02076284,4.900662,0.31603584,-12.366791,0.0,0.0,-2.0,0.0062548993,0.0040109125,-1.2112755,0.70733124,-0.00019569811,0.0032741907,0.70687455
173010091,0.038926136,-0.32860056,-0.11515343,-0.49044165,-1.8506358,-11.588408,0.0,0.0,-2.0,0.0062548993,0.0040109125,-1.2112755,0.70733124,-0.00019569811,0.0032741907,0.70687455
173014085,-0.14043768,0.079027675,0.021252383,-5.016374,0.029095856,-11.911996,0.0,0.0,-2.0,0.0062548993,0.0040109125,-1.2112755,0.70733124,-0.00019569811,0.0032741907,0.70687455
173018084,-0.14247763,0.018803015,-0.046604883,1.4647588,1.8689276,-11.217827,0.0,0.0,-2.0,0.0062548993,0.0040109125,-1.2112755,0.70733124,-0.00019569811,0.0032741907,0.70687455
173022084,0.18254307,-0.03513471,-0.021459566,4.317181,0.7460411,-11.300072,0.0,0.0,-2.0,0.0062548993,0.0040109125,-1.2112755,0.70733124,-0.00019569811,0.0032741907,0.70687455
173026113,0.12032809,-0.18871814,-0.101440616,-1.727721,-0.5985946,-12.951184,0.0,0.0,-2.0,0.0062548993,0.0040109125,-1.2112755,0.70733124,-0.00019569811,0.0032741907,0.70687455
173030091,-0.15933324,-0.0398693,0.0036578297,-3.138234,0.80435777,-10.351846,0.0,0.0,-2.0,0.009783665,-0.0007528044,-1.25,0.70733124,-0.00019569811,0.0032741907,0.70687455
173034085,0.21505512,0.0710012,-0.046650704,2.553113,0.8066868,-10.927838,0.0,0.0,-2.0,0.009783665,-0.0007528044,-1.25,0.70733124,-0.00019569811,0.0032741907,0.70687455
173038084,0.076647684,-0.151131,-0.07529914,2.7600262,-1.8233545,-12.292052,0.0,0.0,-2.0,0.009783665,-0.0007528044,-1.25,0.70733124,-0.00019569811,0.0032741907,0.70687455
173042084,-0.090042904,-0.20231104,-0.08145157,-3.3359687,-0.76073134,-11.141419,0.0,0.0,-2.0,0.009783665,-0.0007528044,-1.25,0.70733124,-0.00019569811,0.0032741907,0.70687455
173046084,-0.31184113,0.07479926,0.036653753,-2.0866973,2.0187747,-10.283264,0.0,0.0,-2.0,0.009783665,-0.0007528044,-1.25,0.70733124,-0.00019569811,0.0032741907,0.70687455
173050122,0.31327888,-0.02043263,-0.10711194,3.7513764,1.6582639,-11.37548,0.0,0.0,-2.0,0.009783665,-0.0007528044,-1.25,0.70733124,-0.00019569811,0.0032741907,0.70687455
173054085,0.118293636,-0.17782103,-0.062198292,1.3491412,-1.1159148,-12.212669,0.0,0.0,-2.0,0.009783665,-0.0007528044,-1.25,0.70733124,-0.00019569811,0.0032741907,0.70687455
173058084,-0.078527585,-0.17327029,-0.057733573,-3.9301872,0.1410578,-9.229284,0.0,0.0,-2.0,0.009783665,-0.0007528044,-1.25,0.70733124,-0.00019569811,0.0032741907,0.70687455
173062084,-0.06800834,0.14641708,0.005060956,-0.8590239,1.1361847,-11.213457,0.0,0.0,-2.0,0.009783665,-0.0007528044,-1.25,0.70733124,-0.00019569811,0.0032741907,0.70687455
173066085,0.16737977,-0.09621672,-0.10564788,3.8998194,0.34329912,-12.537315,0.0,0.0,-2.0,0.009783665,-0.0007528044,-1.25,0.70733124,-0.00019569811,0.0032741907,0.70687455
173070129,0.17695512,-0.14905658,-0.09122566,-0.32548892,-0.9585589,-10.744015,0.0,0.0,-2.0,0.009783665,-0.0007528044,-1.25,0.70733124,-0.00019569811,0.0032741907,0.70687455
173074085,-0.25298318,-0.058278184,0.03457661,-3.5877059,0.6249252,-9.841432,0.0,0.0,-2.0,0.009783665,-0.0007528044,-1.25,0.70733124,-0.00019569811,0.0032741907,0.70687455
173078085,0.13217102,0.058362808,-0.06124109,-0.042040046,2.7513285,-10.638422,0.0,0.0,-2.0,0.009783665,-0.0007528044,-1.25,0.70733124,-0.00019569811,0.0032741907,0.70687455
173082085,0.2701483,0.0025261438,-0.09981378,2.8846056,-0.29186937,-11.281579,0.0,0.0,-2.0,0.009783665,-0.0007528044,-1.25,0.70733124,-0.00019569811,0.0032741907,0.70687455
173086084,0.1399311,-0.16133961,-0.048419815,-0.5779671,-1.1818644,-10.215156,0.0,0.0,-2.0,0.009783665,-0.0007528044,-1.25,0.70733124,-0.00019569811,0.0032741907,0.70687455
173090091,-0.22619137,0.08422766,0.027048022,-2.2022007,0.6180859,-11.285917,0.0,0.0,-2.0,0.009783665,-0.0007528044,-1.25,0.70733124,-0.00019569811,0.0032741907,0.70687455
173094085,0.21743116,-0.028559735,-0.07637698,1.2680129,1.9189769,-10.3802595,0.0,0.0,-2.0,0.009783665,-0.0007528044,-1.25,0.70733124,-0.00019569811,0.0032741907,0.70687455
173098085,0.21969041,-0.03786375,-0.083063304,1.4391636,-0.57303655,-11.193651,0.0,0.0,-2.0,0.009783665,-0.0007528044,-1.25,0.70733124,-0.00019569811,0.0032741907,0.70687455
173102085,0.16237283,-0.022655925,0.0032670787,-1.0471624,-0.9267139,-11.119963,0.0,0.0,-2.0,0.009783665,-0.0007528044,-1.25,0.70733124,-0.00019569811,0.0032741907,0.70687455
173106085,-0.23293686,-0.08218711,-0.031646505,-1.8507143,1.422215,-10.7696495,0.0,0.0,-2.0,0.009783665,-0.0007528044,-1.25,0.70733124,-0.00019569811,0.0032741907,0.70687455
173110091,0.36169735,0.16362658,-0.058537412,0.30414936,2.1407995,-9.045923,0.0,0.0,-2.0,0.009783665,-0.0007528044,-1.25,0.70733124,-0.00019569811,0.0032741907,0.70687455
173114114,0.2338381,-0.097216904,-0.06934462,1.4164172,-0.7178854,-11.447675,0.0,0.0,-2.0,0.009783665,-0.0007528044,-1.25,0.70733124,-0.00019569811,0.0032741907,0.70687455
173118060,0.22912689,0.056799952,-0.008244481,-0.52485895,-0.7537785,-9.920588,0.0,0.0,-2.0,0.009783665,-0.0007528044,-1.25,0.70779866,0.002018241,0.00253614,0.70640683
173122061,-0.08173066,-0.0037532155,0.0034699866,-0.23249783,-0.09590245,-10.970307,0.0,0.0,-2.0,0.009783665,-0.0007528044,-1.25,0.70779866,0.002018241,0.00253614,0.70640683
173126061,0.24737667,-0.072246194,-0.11528808,0.21970992,1.2425957,-9.60758,0.0,0.0,-2.0,0.009783665,-0.0007528044,-1.25,0.70779866,0.002018241,0.00253614,0.70640683
173130067,0.196222,0.13027467,0.009843021,0.13084508,-1.2913767,-10.10834,0.0,0.0,-2.0,0.016385771,-0.008398486,-1.25,0.70779866,0.002018241,0.00253614,0.70640683
173134142,0.0613642,-0.14650963,-0.036224883,-0.9347927,-0.120304845,-12.081627,0.0,0.0,-2.0,0.016385771,-0.008398486,-1.25,0.70779866,0.002018241,0.00253614,0.70640683
173138061,0.04201871,0.17102146,-0.023244815,-0.67114174,0.78937304,-10.058969,0.0,0.0,-2.0,0.016385771,-0.008398486,-1.25,0.70779866,0.002018241,0.00253614,0.70640683
173142061,0.16586705,-0.09326429,-0.05562928,2.311993,0.74805087,-9.737794,0.0,0.0,-2.0,0.016385771,-0.008398486,-1.25,0.70779866,0.002018241,0.00253614,0.70640683
173146061,0.2981905,-0.022681676,-0.039847724,1.315427,-1.0997641,-11.901498,0.0,0.0,-2.0,0.016385771,-0.008398486,-1.25,0.70779866,0.002018241,0.00253614,0.70640683
173150067,-0.027709115,-0.0841072,-0.0028623987,-2.6330738,-0.98450935,-9.551314,0.0,0.0,-2.0,0.016385771,-0.008398486,-1.25,0.70779866,0.002018241,0.00253614,0.70640683
173154072,0.026665656,0.08067035,-0.03230182,-0.37619337,0.1526577,-10.611159,0.0,0.0,-2.0,0.016385771,-0.008398486,-1.25,0.70779866,0.002018241,0.00253614,0.70640683
173158060,0.009214949,0.031805273,-0.02654887,1.9077413,0.9043941,-10.361885,0.0,0.0,-2.0,0.016385771,-0.008398486,-1.25,0.70779866,0.002018241,0.00253614,0.70640683
173162060,0.18071471,-0.18090537,-0.06677207,1.0372356,0.092803285,-10.257212,0.0,0.0,-2.0,0.016385771,-0.008398486,-1.25,0.70779866,0.002018241,0.00253614,0.70640683
173166067,0.0815721,0.033372317,0.026294164,-2.629608,-0.27818316,-10.866823,0.0,0.0,-2.0,0.016385771,-0.008398486,-1.25,0.70779866,0.002018241,0.00253614,0.70640683
173170067,-0.046253473,-0.022929246,-0.03475105,0.37256324,0.67317826,-9.916523,0.0,0.0,-2.0,0.016385771,-0.008398486,-1.25,0.70779866,0.002018241,0.00253614,0.70640683
173174094,0.24393447,0.083105095,-0.048943143,1.0179535,0.7568061,-9.319683,0.0,0.0,-2.0,0.016385771,-0.008398486,-1.25,0.70779866,0.002018241,0.00253614,0.70640683
173178060,0.15394843,-0.092209905,-0.031408757,0.070293084,-1.5443951,-11.976269,0.0,0.0,-2.0,0.016385771,-0.008398486,-1.25,0.70779866,0.002018241,0.00253614,0.70640683
173182060,-0.11336243,-0.029165283,0.057326503,-0.3813332,-0.34598827,-10.511981,0.0,0.0,-2.0,0.016385771,-0.008398486,-1.25,0.70779866,0.002018241,0.00253614,0.70640683
173186060,-0.046342943,0.06290425,-0.05737103,-0.41184965,1.3610444,-8.627542,0.0,0.0,-2.0,0.016385771,-0.008398486,-1.25,0.70779866,0.002018241,0.00253614,0.70640683
173190070,0.22712596,-0.0140283,-0.028328624,-0.23814023,1.6301781,-10.854496,0.0,0.0,-2.0,0.016385771,-0.008398486,-1.25,0.70779866,0.002018241,0.00253614,0.70640683
173194061,0.332113,0.052459214,-0.018115742,-0.4141841,-1.0428063,-11.278746,0.0,0.0,-2.0,0.016385771,-0.008398486,-1.25,0.70779866,0.002018241,0.00253614,0.70640683
173198060,-0.15176149,0.02011169,0.105868235,1.3993036,-0.68013895,-8.842398,0.0,0.0,-2.0,0.016385771,-0.008398486,-1.25,0.70779866,0.002018241,0.00253614,0.70640683
173202069,0.1912261,-0.09535824,-0.16258071,0.9489467,0.9616717,-8.97364,0.0,0.0,-2.0,0.016385771,-0.008398486,-1.25,0.70779866,0.002018241,0.00253614,0.70640683
173206061,-0.026462171,0.08237116,0.09537369,-1.3098263,0.2328031,-12.249125,0.0,0.0,-2.0,0.016385771,-0.008398486,-1.25,0.70779866,0.002018241,0.00253614,0.70640683
173210063,0.33667827,-0.071215495,-0.054547653,-1.0804529,-0.10005623,-11.223387,0.0,0.0,-2.0,0.016385771,-0.008398486,-1.25,0.70779866,0.002018241,0.00253614,0.70640683
173214063,-0.13917054,0.10979628,0.074548095,0.8962691,-0.46058318,-8.482194,0.0,0.0,-2.0,0.016385771,-0.008398486,-1.25,0.70779866,0.002018241,0.00253614,0.70640683
173218098,0.24884461,-0.056916803,-0.101518825,2.087688,1.4916415,-9.519001,0.0,0.0,-2.0,0.016385771,-0.008398486,-1.25,0.70913404,0.0037967076,0.00037873595,0.7050634
173222061,0.11659471,-0.01740921,0.07112728,-1.9707713,-0.44022033,-11.714572,0.0,0.0,-2.0,0.016385771,-0.008398486,-1.25,0.70913404,0.0037967076,0.00037873595,0.7050634
173226061,0.061270114,0.024386307,0.026215732,-1.5450262,-0.86954045,-9.969176,0.0,0.0,-2.0,0.016385771,-0.008398486,-1.25,0.70913404,0.0037967076,0.00037873595,0.7050634
173230061,0.023392664,0.08277285,0.004297862,2.168561,0.119697645,-10.270018,0.0,0.0,-2.0,0.024785547,-0.019556226,-1.25,0.70913404,0.0037967076,0.00037873595,0.7050634
173234061,-0.01344038,-0.0895597,-0.039122786,1.2907232,1.112934,-8.372056,0.0,0.0,-2.0,0.024785547,-0.019556226,-1.25,0.70913404,0.0037967076,0.00037873595,0.7050634
173238099,0.30334893,0.042602435,0.06261838,-2.359145,-0.08906362,-12.021087,0.0,0.0,-2.0,0.024785547,-0.019556226,-1.25,0.70913404,0.0037967076,0.00037873595,0.7050634
173242061,-0.11683191,-0.0130416835,0.0144593455,-0.67341727,-0.8491555,-11.572127,0.0,0.0,-2.0,0.024785547,-0.019556226,-1.25,0.70913404,0.0037967076,0.00037873595,0.7050634
173246075,0.21525855,0.045280054,-0.018305063,2.7174518,0.2501569,-7.7362785,0.0,0.0,-2.0,0.024785547,-0.019556226,-1.25,0.70913404,0.0037967076,0.00037873595,0.7050634
173250061,-0.16596664,-0.040184088,0.024633197,-0.3120955,0.50074136,-10.568401,0.0,0.0,-2.0,0.024785547,-0.019556226,-1.25,0.70913404,0.0037967076,0.00037873595,0.7050634
173254061,0.25128442,0.0016921861,0.043062456,-4.3456664,1.1337947,-11.044927,0.0,0.0,-2.0,0.024785547,-0.019556226,-1.25,0.70913404,0.0037967076,0.00037873595,0.7050634
173258067,0.071544275,0.16002893,0.037609257,2.6663435,-0.9582166,-10.653733,0.0,0.0,-2.0,0.024785547,-0.019556226,-1.25,0.70913404,0.0037967076,0.00037873595,0.7050634
173262091,0.124159716,-0.15238334,-0.045336332,3.760623,0.4826064,-8.228799,0.0,0.0,-2.0,0.024785547,-0.019556226,-1.25,0.70913404,0.0037967076,0.00037873595,0.7050634
173266060,0.1206669,0.061359674,0.09155204,-4.118502,-0.46902385,-11.630166,0.0,0.0,-2.0,0.024785547,-0.019556226,-1.25,0.70913404,0.0037967076,0.00037873595,0.7050634
173270061,0.012683871,-0.028700972,0.0047336696,-3.7395942,0.09815712,-9.959187,0.0,0.0,-2.0,0.024785547,-0.019556226,-1.25,0.70913404,0.0037967076,0.00037873595,0.7050634
173274061,0.0824716,0.33140686,0.036203388,3.6216729,-0.8559176,-9.037072,0.0,0.0,-2.0,0.024785547,-0.019556226,-1.25,0.70913404,0.0037967076,0.00037873595,0.7050634
173278090,-0.052414194,-0.13166948,0.024168171,3.7132416,0.7421155,-10.081705,0.0,0.0,-2.0,0.024785547,-0.019556226,-1.25,0.70913404,0.0037967076,0.00037873595,0.7050634
173282121,0.1046707,-0.008055091,0.04466467,-5.7485642,0.80242324,-10.6628275,0.0,0.0,-2.0,0.024785547,-0.019556226,-1.25,0.70913404,0.0037967076,0.00037873595,0.7050634
173286061,0.20475323,0.27225596,0.03899508,-1.873776,-1.0190538,-10.57504,0.0,0.0,-2.0,0.024785547,-0.019556226,-1.25,0.70913404,0.0037967076,0.00037873595,0.7050634
173290089,-0.1346117,0.06860043,0.02743261,4.5259247,-1.1795579,-8.676473,0.0,0.0,-2.0,0.024785547,-0.019556226,-1.25,0.70913404,0.0037967076,0.00037873595,0.7050634
173294084,0.007881968,0.085766815,0.031268943,1.0565296,0.14099231,-9.22492,0.0,0.0,-2.0,0.024785547,-0.019556226,-1.25,0.70913404,0.0037967076,0.00037873595,0.7050634
173298090,-0.02213247,0.027882125,0.025219666,-4.665314,-0.679157,-12.692884,0.0,0.0,-2.0,0.024785547,-0.019556226,-1.25,0.70913404,0.0037967076,0.00037873595,0.7050634
173302132,-0.19721009,0.2343735,0.065116026,-0.9264194,-0.06544219,-9.464596,0.0,0.0,-2.0,0.024785547,-0.019556226,-1.25,0.70913404,0.0037967076,0.00037873595,0.7050634
173306091,0.05008196,0.18968081,0.036802184,4.8598356,0.7114378,-7.8541107,0.0,0.0,-2.0,0.024785547,-0.019556226,-1.25,0.70913404,0.0037967076,0.00037873595,0.7050634
